[
  {
    "id": 1,
    "name": "Создание регулярной армии и флота",
    "reformer": "Пётр I",
    "year": "1699–1725",
    "period": "XVIII век",
    "type": "военная",
    "region": "Русское царство / Российская империя",
    "coordinates": [
      59.9386,
      30.3141
    ],
    "goal": "Создать постоянные вооружённые силы европейского типа и обеспечить России статус морской державы.",
    "measures": "Введены рекрутские наборы, сформированы регулярные полки, построен военно-морской флот, открыты военные школы, развёрнуто производство вооружений.",
    "results": "Россия получила регулярную армию и флот, усилила позиции в Северной войне и закрепилась на Балтике.",
    "locations": [
      {
        "name": "Воронеж",
        "coordinates": [
          51.6608,
          39.2003
        ]
      },
      {
        "name": "Санкт-Петербург",
        "coordinates": [
          59.9386,
          30.3141
        ]
      },
      {
        "name": "Кронштадт",
        "coordinates": [
          59.9954,
          29.7663
        ]
      },
      {
        "name": "Архангельск",
        "coordinates": [
          64.5399,
          40.5158
        ]
      }
    ]
  },
  {
    "id": 2,
    "name": "Календарная реформа",
    "reformer": "Пётр I",
    "year": 1700,
    "period": "XVIII век",
    "type": "культурная",
    "region": "Русское царство",
    "coordinates": [
      55.7558,
      37.6173
    ],
    "goal": "Сблизить российское летоисчисление и делопроизводство с европейской практикой.",
    "measures": "Начало года перенесено на 1 января; введено летоисчисление от Рождества Христова.",
    "results": "Упростились дипломатические, торговые и административные контакты с европейскими государствами.",
    "locations": [
      {
        "name": "Москва",
        "coordinates": [
          55.7558,
          37.6173
        ]
      },
      {
        "name": "Архангельск",
        "coordinates": [
          64.5399,
          40.5158
        ]
      },
      {
        "name": "Тобольск",
        "coordinates": [
          58.2017,
          68.2539
        ]
      }
    ]
  },
  {
    "id": 3,
    "name": "Губернская реформа Петра I",
    "reformer": "Пётр I",
    "year": "1708–1719",
    "period": "XVIII век",
    "type": "административная",
    "region": "Российское государство",
    "coordinates": [
      59.9386,
      30.3141
    ],
    "goal": "Усилить контроль центра над территориями и обеспечить сбор налогов и рекрутов.",
    "measures": "Страна разделена на губернии, позднее — на провинции и дистрикты; губернаторы получили широкие полномочия.",
    "results": "Централизация управления усилилась, но выросла нагрузка на население и бюрократический аппарат.",
    "locations": [
      {
        "name": "Санкт-Петербург",
        "coordinates": [
          59.9386,
          30.3141
        ]
      },
      {
        "name": "Москва",
        "coordinates": [
          55.7558,
          37.6173
        ]
      },
      {
        "name": "Казань",
        "coordinates": [
          55.7963,
          49.1088
        ]
      },
      {
        "name": "Киев",
        "coordinates": [
          50.4501,
          30.5234
        ]
      },
      {
        "name": "Тобольск",
        "coordinates": [
          58.2017,
          68.2539
        ]
      }
    ]
  },
  {
    "id": 4,
    "name": "Учреждение Правительствующего Сената",
    "reformer": "Пётр I",
    "year": 1711,
    "period": "XVIII век",
    "type": "административная",
    "region": "Санкт-Петербург",
    "coordinates": [
      59.9386,
      30.3141
    ],
    "goal": "Создать высший орган управления на время отсутствия монарха и укрепить центральную власть.",
    "measures": "Создан Сенат с функциями высшего административного, судебного и контрольного учреждения.",
    "results": "Появился постоянный высший орган государственного управления, усиливший вертикаль власти.",
    "locations": [
      {
        "name": "Санкт-Петербург",
        "coordinates": [
          59.9386,
          30.3141
        ]
      },
      {
        "name": "Москва",
        "coordinates": [
          55.7558,
          37.6173
        ]
      },
      {
        "name": "Казань",
        "coordinates": [
          55.7963,
          49.1088
        ]
      },
      {
        "name": "Киев",
        "coordinates": [
          50.4501,
          30.5234
        ]
      },
      {
        "name": "Рига",
        "coordinates": [
          56.9496,
          24.1052
        ]
      }
    ]
  },
  {
    "id": 5,
    "name": "Коллегиальная реформа",
    "reformer": "Пётр I",
    "year": "1717–1721",
    "period": "XVIII век",
    "type": "административная",
    "region": "Санкт-Петербург",
    "coordinates": [
      59.9386,
      30.3141
    ],
    "goal": "Заменить приказную систему более регулярным и специализированным управлением.",
    "measures": "Созданы коллегии по образцу европейских ведомств: военная, адмиралтейская, иностранных дел, камер-коллегия и другие.",
    "results": "Административное управление стало более отраслевым и формализованным, однако бюрократия расширилась.",
    "locations": [
      {
        "name": "Санкт-Петербург",
        "coordinates": [
          59.9386,
          30.3141
        ]
      },
      {
        "name": "Москва",
        "coordinates": [
          55.7558,
          37.6173
        ]
      },
      {
        "name": "Казань",
        "coordinates": [
          55.7963,
          49.1088
        ]
      },
      {
        "name": "Киев",
        "coordinates": [
          50.4501,
          30.5234
        ]
      },
      {
        "name": "Рига",
        "coordinates": [
          56.9496,
          24.1052
        ]
      }
    ]
  },
  {
    "id": 6,
    "name": "Церковная реформа и учреждение Святейшего Синода",
    "reformer": "Пётр I",
    "year": 1721,
    "period": "XVIII век",
    "type": "церковная",
    "region": "Российская империя",
    "coordinates": [
      59.9386,
      30.3141
    ],
    "goal": "Подчинить церковь государству и устранить самостоятельный политический центр в лице патриаршества.",
    "measures": "Патриаршество заменено Святейшим Синодом; церковное управление стало частью государственного аппарата.",
    "results": "Церковь была встроена в систему самодержавной бюрократии, усилился контроль государства над духовной сферой.",
    "locations": [
      {
        "name": "Москва",
        "coordinates": [
          55.7558,
          37.6173
        ]
      },
      {
        "name": "Киев",
        "coordinates": [
          50.4501,
          30.5234
        ]
      },
      {
        "name": "Великий Новгород",
        "coordinates": [
          58.5215,
          31.2755
        ]
      },
      {
        "name": "Ярославль",
        "coordinates": [
          57.6261,
          39.8845
        ]
      },
      {
        "name": "Суздаль",
        "coordinates": [
          56.419,
          40.4491
        ]
      }
    ]
  },
  {
    "id": 7,
    "name": "Подушная подать и первая ревизия",
    "reformer": "Пётр I",
    "year": "1718–1724",
    "period": "XVIII век",
    "type": "налоговая",
    "region": "Российская империя",
    "coordinates": [
      55.7558,
      37.6173
    ],
    "goal": "Стабилизировать доходы казны для содержания армии и государственного аппарата.",
    "measures": "Вместо подворного налогообложения введена подушная подать с мужского податного населения; проведена ревизия населения.",
    "results": "Доходы казны выросли, но налоговое давление на крестьян и посадское население усилилось.",
    "locations": [
      {
        "name": "Тула",
        "coordinates": [
          54.193,
          37.6178
        ]
      },
      {
        "name": "Тамбов",
        "coordinates": [
          52.7212,
          41.4523
        ]
      },
      {
        "name": "Рязань",
        "coordinates": [
          54.6292,
          39.7364
        ]
      },
      {
        "name": "Саратов",
        "coordinates": [
          51.5331,
          46.0342
        ]
      },
      {
        "name": "Казань",
        "coordinates": [
          55.7963,
          49.1088
        ]
      }
    ]
  },
  {
    "id": 8,
    "name": "Табель о рангах",
    "reformer": "Пётр I",
    "year": 1722,
    "period": "XVIII век",
    "type": "социальная",
    "region": "Российская империя",
    "coordinates": [
      59.9386,
      30.3141
    ],
    "goal": "Связать продвижение дворян и чиновников со службой государству.",
    "measures": "Установлена иерархия из 14 классов гражданской, военной и придворной службы; служба стала каналом получения статуса.",
    "results": "Служилый принцип укрепился, дворянство стало более зависимым от государства и чиновной карьеры.",
    "locations": [
      {
        "name": "Санкт-Петербург",
        "coordinates": [
          59.9386,
          30.3141
        ]
      },
      {
        "name": "Москва",
        "coordinates": [
          55.7558,
          37.6173
        ]
      },
      {
        "name": "Киев",
        "coordinates": [
          50.4501,
          30.5234
        ]
      },
      {
        "name": "Рига",
        "coordinates": [
          56.9496,
          24.1052
        ]
      }
    ]
  },
  {
    "id": 9,
    "name": "Реформа образования и гражданской печати Петра I",
    "reformer": "Пётр I",
    "year": "1701–1725",
    "period": "XVIII век",
    "type": "образовательная",
    "region": "Москва и Санкт-Петербург",
    "coordinates": [
      55.7558,
      37.6173
    ],
    "goal": "Подготовить специалистов для армии, флота, промышленности и управления.",
    "measures": "Открыты навигацкие, инженерные, артиллерийские и медицинские школы; введён гражданский шрифт; развивалась светская печать.",
    "results": "Расширилась сеть светского образования, выросла потребность в технических и управленческих кадрах.",
    "locations": [
      {
        "name": "Москва",
        "coordinates": [
          55.7558,
          37.6173
        ]
      },
      {
        "name": "Санкт-Петербург",
        "coordinates": [
          59.9386,
          30.3141
        ]
      },
      {
        "name": "Казань",
        "coordinates": [
          55.7963,
          49.1088
        ]
      },
      {
        "name": "Великий Новгород",
        "coordinates": [
          58.5215,
          31.2755
        ]
      }
    ]
  },
  {
    "id": 10,
    "name": "Секуляризация церковных земель",
    "reformer": "Екатерина II",
    "year": 1764,
    "period": "XVIII век",
    "type": "церковная",
    "region": "Российская империя",
    "coordinates": [
      59.9386,
      30.3141
    ],
    "goal": "Усилить финансовую базу государства и ограничить хозяйственную самостоятельность церкви.",
    "measures": "Монастырские и церковные земли переданы в ведение Коллегии экономии; зависимые крестьяне стали экономическими крестьянами.",
    "results": "Государство получило дополнительные ресурсы, а церковь потеряла значительную часть земельной базы.",
    "locations": [
      {
        "name": "Троице-Сергиева лавра",
        "coordinates": [
          56.3105,
          38.132
        ]
      },
      {
        "name": "Суздаль",
        "coordinates": [
          56.419,
          40.4491
        ]
      },
      {
        "name": "Киев",
        "coordinates": [
          50.4501,
          30.5234
        ]
      },
      {
        "name": "Ярославль",
        "coordinates": [
          57.6261,
          39.8845
        ]
      }
    ]
  },
  {
    "id": 11,
    "name": "Уложенная комиссия",
    "reformer": "Екатерина II",
    "year": "1767–1768",
    "period": "XVIII век",
    "type": "правовая",
    "region": "Москва",
    "coordinates": [
      55.7558,
      37.6173
    ],
    "goal": "Подготовить новое законодательное уложение и представить образ просвещённого правления.",
    "measures": "Созвана комиссия представителей сословий; подготовлен Наказ Екатерины II с идеями рационализации законодательства.",
    "results": "Новое уложение принято не было, но комиссия выявила социальные противоречия и стала важным политико-правовым опытом.",
    "locations": [
      {
        "name": "Санкт-Петербург",
        "coordinates": [
          59.9386,
          30.3141
        ]
      },
      {
        "name": "Москва",
        "coordinates": [
          55.7558,
          37.6173
        ]
      },
      {
        "name": "Казань",
        "coordinates": [
          55.7963,
          49.1088
        ]
      },
      {
        "name": "Киев",
        "coordinates": [
          50.4501,
          30.5234
        ]
      },
      {
        "name": "Рига",
        "coordinates": [
          56.9496,
          24.1052
        ]
      }
    ]
  },
  {
    "id": 12,
    "name": "Губернская реформа Екатерины II",
    "reformer": "Екатерина II",
    "year": 1775,
    "period": "XVIII век",
    "type": "административная",
    "region": "Российская империя",
    "coordinates": [
      55.7558,
      37.6173
    ],
    "goal": "Укрепить местное управление после восстания Пугачёва и повысить управляемость империи.",
    "measures": "Губернии и уезды перераспределены по численности населения; расширены полномочия губернаторов; созданы губернские учреждения и сословные суды.",
    "results": "Местная администрация стала плотнее и эффективнее, усилился контроль центра над провинцией.",
    "locations": [
      {
        "name": "Санкт-Петербург",
        "coordinates": [
          59.9386,
          30.3141
        ]
      },
      {
        "name": "Москва",
        "coordinates": [
          55.7558,
          37.6173
        ]
      },
      {
        "name": "Казань",
        "coordinates": [
          55.7963,
          49.1088
        ]
      },
      {
        "name": "Киев",
        "coordinates": [
          50.4501,
          30.5234
        ]
      },
      {
        "name": "Рига",
        "coordinates": [
          56.9496,
          24.1052
        ]
      }
    ]
  },
  {
    "id": 13,
    "name": "Школьная реформа Екатерины II",
    "reformer": "Екатерина II",
    "year": "1782–1786",
    "period": "XVIII век",
    "type": "образовательная",
    "region": "Российская империя",
    "coordinates": [
      59.9386,
      30.3141
    ],
    "goal": "Создать сеть государственных светских учебных заведений.",
    "measures": "Учреждены главные и малые народные училища; разработаны учебные планы, классы и система подготовки учителей.",
    "results": "Началось формирование государственной системы общего образования, хотя доступ оставался ограниченным.",
    "locations": [
      {
        "name": "Москва",
        "coordinates": [
          55.7558,
          37.6173
        ]
      },
      {
        "name": "Санкт-Петербург",
        "coordinates": [
          59.9386,
          30.3141
        ]
      },
      {
        "name": "Казань",
        "coordinates": [
          55.7963,
          49.1088
        ]
      },
      {
        "name": "Великий Новгород",
        "coordinates": [
          58.5215,
          31.2755
        ]
      }
    ]
  },
  {
    "id": 14,
    "name": "Жалованная грамота дворянству",
    "reformer": "Екатерина II",
    "year": 1785,
    "period": "XVIII век",
    "type": "социальная",
    "region": "Российская империя",
    "coordinates": [
      59.9386,
      30.3141
    ],
    "goal": "Закрепить права и привилегии дворянства как опоры самодержавия.",
    "measures": "Подтверждены личные и имущественные права дворян, освобождение от телесных наказаний и обязательной службы; оформлены дворянские собрания.",
    "results": "Дворянство получило юридически закреплённый корпоративный статус, а сословная структура стала более жёсткой.",
    "locations": [
      {
        "name": "Санкт-Петербург",
        "coordinates": [
          59.9386,
          30.3141
        ]
      },
      {
        "name": "Москва",
        "coordinates": [
          55.7558,
          37.6173
        ]
      },
      {
        "name": "Киев",
        "coordinates": [
          50.4501,
          30.5234
        ]
      },
      {
        "name": "Рига",
        "coordinates": [
          56.9496,
          24.1052
        ]
      }
    ]
  },
  {
    "id": 15,
    "name": "Жалованная грамота городам",
    "reformer": "Екатерина II",
    "year": 1785,
    "period": "XVIII век",
    "type": "городская",
    "region": "Российская империя",
    "coordinates": [
      59.9386,
      30.3141
    ],
    "goal": "Упорядочить городское население и городское самоуправление.",
    "measures": "Горожане разделены на разряды; созданы городские думы и органы городского общества.",
    "results": "Городское сословие получило формализованную структуру, но реальное самоуправление оставалось ограниченным.",
    "locations": [
      {
        "name": "Санкт-Петербург",
        "coordinates": [
          59.9386,
          30.3141
        ]
      },
      {
        "name": "Москва",
        "coordinates": [
          55.7558,
          37.6173
        ]
      },
      {
        "name": "Нижний Новгород",
        "coordinates": [
          56.3269,
          44.0059
        ]
      },
      {
        "name": "Киев",
        "coordinates": [
          50.4501,
          30.5234
        ]
      },
      {
        "name": "Одесса",
        "coordinates": [
          46.4825,
          30.7233
        ]
      }
    ]
  },
  {
    "id": 16,
    "name": "Учреждение ассигнационных банков и бумажных денег",
    "reformer": "Екатерина II",
    "year": 1769,
    "period": "XVIII век",
    "type": "финансовая",
    "region": "Москва и Санкт-Петербург",
    "coordinates": [
      55.7558,
      37.6173
    ],
    "goal": "Расширить денежное обращение и обеспечить государственные расходы.",
    "measures": "Созданы ассигнационные банки, начат выпуск бумажных ассигнаций.",
    "results": "Денежное обращение стало гибче, но чрезмерный выпуск ассигнаций позднее вызвал обесценение бумажных денег.",
    "locations": [
      {
        "name": "Москва",
        "coordinates": [
          55.7558,
          37.6173
        ]
      },
      {
        "name": "Санкт-Петербург",
        "coordinates": [
          59.9386,
          30.3141
        ]
      },
      {
        "name": "Нижний Новгород",
        "coordinates": [
          56.3269,
          44.0059
        ]
      }
    ]
  },
  {
    "id": 17,
    "name": "Министерская реформа",
    "reformer": "Александр I",
    "year": "1802–1811",
    "period": "XIX век",
    "type": "административная",
    "region": "Санкт-Петербург",
    "coordinates": [
      59.9386,
      30.3141
    ],
    "goal": "Заменить коллегиальное управление министерской системой с персональной ответственностью министров.",
    "measures": "Созданы первые министерства; позднее уточнены их компетенции и порядок взаимодействия с Государственным советом.",
    "results": "Центральное управление стало более специализированным и персонализированным.",
    "locations": [
      {
        "name": "Санкт-Петербург",
        "coordinates": [
          59.9386,
          30.3141
        ]
      },
      {
        "name": "Москва",
        "coordinates": [
          55.7558,
          37.6173
        ]
      },
      {
        "name": "Казань",
        "coordinates": [
          55.7963,
          49.1088
        ]
      },
      {
        "name": "Киев",
        "coordinates": [
          50.4501,
          30.5234
        ]
      },
      {
        "name": "Рига",
        "coordinates": [
          56.9496,
          24.1052
        ]
      }
    ]
  },
  {
    "id": 18,
    "name": "Указ о вольных хлебопашцах",
    "reformer": "Александр I",
    "year": 1803,
    "period": "XIX век",
    "type": "социальная",
    "region": "Российская империя",
    "coordinates": [
      59.9386,
      30.3141
    ],
    "goal": "Создать правовой механизм освобождения крепостных по соглашению с помещиком.",
    "measures": "Помещики получили право отпускать крестьян на волю с землёй за выкуп или по договору.",
    "results": "Освобождена небольшая доля крестьян, но указ стал важным прецедентом обсуждения крестьянского вопроса.",
    "locations": [
      {
        "name": "Тула",
        "coordinates": [
          54.193,
          37.6178
        ]
      },
      {
        "name": "Рязань",
        "coordinates": [
          54.6292,
          39.7364
        ]
      },
      {
        "name": "Тамбов",
        "coordinates": [
          52.7212,
          41.4523
        ]
      },
      {
        "name": "Воронеж",
        "coordinates": [
          51.6608,
          39.2003
        ]
      },
      {
        "name": "Саратов",
        "coordinates": [
          51.5331,
          46.0342
        ]
      }
    ]
  },
  {
    "id": 19,
    "name": "Университетская и учебная реформа Александра I",
    "reformer": "Александр I",
    "year": "1803–1804",
    "period": "XIX век",
    "type": "образовательная",
    "region": "Российская империя",
    "coordinates": [
      55.7558,
      37.6173
    ],
    "goal": "Создать многоуровневую систему образования и расширить университетскую автономию.",
    "measures": "Учреждены учебные округа, гимназии и уездные училища; университетам предоставлены автономные права.",
    "results": "Система образования стала более структурированной, выросло значение университетов как научных и административных центров.",
    "locations": [
      {
        "name": "Москва",
        "coordinates": [
          55.7558,
          37.6173
        ]
      },
      {
        "name": "Санкт-Петербург",
        "coordinates": [
          59.9386,
          30.3141
        ]
      },
      {
        "name": "Казань",
        "coordinates": [
          55.7963,
          49.1088
        ]
      },
      {
        "name": "Харьков",
        "coordinates": [
          49.9935,
          36.2304
        ]
      },
      {
        "name": "Вильнюс",
        "coordinates": [
          54.6872,
          25.2797
        ]
      }
    ]
  },
  {
    "id": 20,
    "name": "Учреждение Государственного совета",
    "reformer": "Александр I / М. М. Сперанский",
    "year": 1810,
    "period": "XIX век",
    "type": "административная",
    "region": "Санкт-Петербург",
    "coordinates": [
      59.9386,
      30.3141
    ],
    "goal": "Создать высший законосовещательный орган и упорядочить подготовку законов.",
    "measures": "Сформирован Государственный совет как орган обсуждения законопроектов, бюджета и важнейших государственных дел.",
    "results": "Законодательный процесс стал более институционализированным, но самодержавная власть сохранила решающее значение.",
    "locations": [
      {
        "name": "Санкт-Петербург",
        "coordinates": [
          59.9386,
          30.3141
        ]
      },
      {
        "name": "Москва",
        "coordinates": [
          55.7558,
          37.6173
        ]
      },
      {
        "name": "Казань",
        "coordinates": [
          55.7963,
          49.1088
        ]
      },
      {
        "name": "Киев",
        "coordinates": [
          50.4501,
          30.5234
        ]
      },
      {
        "name": "Рига",
        "coordinates": [
          56.9496,
          24.1052
        ]
      }
    ]
  },
  {
    "id": 21,
    "name": "Отмена крепостного права в Прибалтийских губерниях",
    "reformer": "Александр I",
    "year": "1816–1819",
    "period": "XIX век",
    "type": "социальная",
    "region": "Эстляндская, Курляндская и Лифляндская губернии",
    "coordinates": [
      59.437,
      24.7536
    ],
    "goal": "Реформировать аграрные отношения в прибалтийских губерниях без общероссийской отмены крепостничества.",
    "measures": "Крестьяне получили личную свободу, но земля в основном осталась у помещиков.",
    "results": "Создан региональный опыт освобождения крестьян, однако земельный вопрос остался нерешённым.",
    "locations": [
      {
        "name": "Таллин",
        "coordinates": [
          59.437,
          24.7536
        ]
      },
      {
        "name": "Тарту",
        "coordinates": [
          58.378,
          26.729
        ]
      },
      {
        "name": "Рига",
        "coordinates": [
          56.9496,
          24.1052
        ]
      },
      {
        "name": "Елгава",
        "coordinates": [
          56.6511,
          23.7214
        ]
      }
    ]
  },
  {
    "id": 22,
    "name": "Военные поселения",
    "reformer": "Александр I / А. А. Аракчеев",
    "year": "1810–1820-е",
    "period": "XIX век",
    "type": "военная",
    "region": "Новгородская и южные губернии",
    "coordinates": [
      58.5215,
      31.2755
    ],
    "goal": "Сократить расходы на армию и совместить военную службу с сельским хозяйством.",
    "measures": "Часть войск размещалась в поселениях, где солдаты совмещали строевую подготовку с хозяйственными работами.",
    "results": "Экономия оказалась ограниченной; жёсткая регламентация вызвала недовольство и восстания.",
    "locations": [
      {
        "name": "Великий Новгород",
        "coordinates": [
          58.5215,
          31.2755
        ]
      },
      {
        "name": "Полтава",
        "coordinates": [
          49.5883,
          34.5514
        ]
      },
      {
        "name": "Херсон",
        "coordinates": [
          46.6354,
          32.6169
        ]
      },
      {
        "name": "Ростов-на-Дону",
        "coordinates": [
          47.2357,
          39.7015
        ]
      }
    ]
  },
  {
    "id": 23,
    "name": "Кодификация законов Российской империи",
    "reformer": "Николай I / М. М. Сперанский",
    "year": "1826–1832",
    "period": "XIX век",
    "type": "правовая",
    "region": "Санкт-Петербург",
    "coordinates": [
      59.9386,
      30.3141
    ],
    "goal": "Систематизировать российское законодательство и повысить управляемость правовой системы.",
    "measures": "Составлены Полное собрание законов Российской империи и Свод законов Российской империи.",
    "results": "Законодательство стало более обозримым и системным, хотя политические основы самодержавия не изменились.",
    "locations": [
      {
        "name": "Санкт-Петербург",
        "coordinates": [
          59.9386,
          30.3141
        ]
      },
      {
        "name": "Москва",
        "coordinates": [
          55.7558,
          37.6173
        ]
      },
      {
        "name": "Киев",
        "coordinates": [
          50.4501,
          30.5234
        ]
      },
      {
        "name": "Казань",
        "coordinates": [
          55.7963,
          49.1088
        ]
      },
      {
        "name": "Варшава",
        "coordinates": [
          52.2297,
          21.0122
        ]
      }
    ]
  },
  {
    "id": 24,
    "name": "Реформа управления государственными крестьянами",
    "reformer": "Николай I / П. Д. Киселёв",
    "year": "1837–1841",
    "period": "XIX век",
    "type": "социальная",
    "region": "Российская империя",
    "coordinates": [
      55.7558,
      37.6173
    ],
    "goal": "Улучшить положение государственных крестьян и повысить эффективность управления деревней.",
    "measures": "Создано Министерство государственных имуществ; введены сельские общества, волости, школы, медицинские пункты и меры агрономической помощи.",
    "results": "Положение части государственных крестьян улучшилось, но реформа не затронула крепостных помещичьих крестьян.",
    "locations": [
      {
        "name": "Тамбов",
        "coordinates": [
          52.7212,
          41.4523
        ]
      },
      {
        "name": "Воронеж",
        "coordinates": [
          51.6608,
          39.2003
        ]
      },
      {
        "name": "Казань",
        "coordinates": [
          55.7963,
          49.1088
        ]
      },
      {
        "name": "Самара",
        "coordinates": [
          53.1959,
          50.1008
        ]
      },
      {
        "name": "Пермь",
        "coordinates": [
          58.0105,
          56.2502
        ]
      }
    ]
  },
  {
    "id": 25,
    "name": "Денежная реформа Канкрина",
    "reformer": "Николай I / Е. Ф. Канкрин",
    "year": "1839–1843",
    "period": "XIX век",
    "type": "финансовая",
    "region": "Российская империя",
    "coordinates": [
      59.9386,
      30.3141
    ],
    "goal": "Стабилизировать денежное обращение и укрепить доверие к рублю.",
    "measures": "Введён серебряный монометаллизм; ассигнации заменялись кредитными билетами с установленным курсом.",
    "results": "Финансовая система стабилизировалась, укрепились государственные финансы и расчёты.",
    "locations": [
      {
        "name": "Санкт-Петербург",
        "coordinates": [
          59.9386,
          30.3141
        ]
      },
      {
        "name": "Москва",
        "coordinates": [
          55.7558,
          37.6173
        ]
      },
      {
        "name": "Нижний Новгород",
        "coordinates": [
          56.3269,
          44.0059
        ]
      },
      {
        "name": "Одесса",
        "coordinates": [
          46.4825,
          30.7233
        ]
      },
      {
        "name": "Рига",
        "coordinates": [
          56.9496,
          24.1052
        ]
      }
    ]
  },
  {
    "id": 26,
    "name": "Университетский устав Николая I",
    "reformer": "Николай I / С. С. Уваров",
    "year": 1835,
    "period": "XIX век",
    "type": "образовательная",
    "region": "Российская империя",
    "coordinates": [
      55.7558,
      37.6173
    ],
    "goal": "Усилить государственный контроль над университетами.",
    "measures": "Сокращена университетская автономия, усилены полномочия попечителей учебных округов и административный надзор.",
    "results": "Образование стало более управляемым государством, но академическая свобода была ограничена.",
    "locations": [
      {
        "name": "Москва",
        "coordinates": [
          55.7558,
          37.6173
        ]
      },
      {
        "name": "Санкт-Петербург",
        "coordinates": [
          59.9386,
          30.3141
        ]
      },
      {
        "name": "Казань",
        "coordinates": [
          55.7963,
          49.1088
        ]
      },
      {
        "name": "Харьков",
        "coordinates": [
          49.9935,
          36.2304
        ]
      },
      {
        "name": "Вильнюс",
        "coordinates": [
          54.6872,
          25.2797
        ]
      }
    ]
  },
  {
    "id": 27,
    "name": "Отмена крепостного права",
    "reformer": "Александр II",
    "year": 1861,
    "period": "XIX век",
    "type": "социальная",
    "region": "Российская империя",
    "coordinates": [
      55.7558,
      37.6173
    ],
    "goal": "Ликвидировать крепостную зависимость и модернизировать социально-экономические отношения.",
    "measures": "Крестьяне получили личную свободу, гражданские права и возможность выкупать земельные наделы через выкупные платежи.",
    "results": "Началось развитие капиталистических отношений, но малоземелье и выкупные платежи сохранили социальную напряжённость.",
    "locations": [
      {
        "name": "Тула",
        "coordinates": [
          54.193,
          37.6178
        ]
      },
      {
        "name": "Рязань",
        "coordinates": [
          54.6292,
          39.7364
        ]
      },
      {
        "name": "Тамбов",
        "coordinates": [
          52.7212,
          41.4523
        ]
      },
      {
        "name": "Воронеж",
        "coordinates": [
          51.6608,
          39.2003
        ]
      },
      {
        "name": "Саратов",
        "coordinates": [
          51.5331,
          46.0342
        ]
      },
      {
        "name": "Самара",
        "coordinates": [
          53.1959,
          50.1008
        ]
      }
    ]
  },
  {
    "id": 28,
    "name": "Земская реформа",
    "reformer": "Александр II",
    "year": 1864,
    "period": "XIX век",
    "type": "административная",
    "region": "Российская империя",
    "coordinates": [
      55.7558,
      37.6173
    ],
    "goal": "Создать органы местного самоуправления для решения хозяйственных и социальных задач.",
    "measures": "Учреждены уездные и губернские земские собрания и управы на выборных, всесословных и имущественных началах.",
    "results": "Земства развивали медицину, образование, статистику и дороги, но их политические полномочия были ограничены.",
    "locations": [
      {
        "name": "Тула",
        "coordinates": [
          54.193,
          37.6178
        ]
      },
      {
        "name": "Ярославль",
        "coordinates": [
          57.6261,
          39.8845
        ]
      },
      {
        "name": "Казань",
        "coordinates": [
          55.7963,
          49.1088
        ]
      },
      {
        "name": "Самара",
        "coordinates": [
          53.1959,
          50.1008
        ]
      },
      {
        "name": "Харьков",
        "coordinates": [
          49.9935,
          36.2304
        ]
      }
    ]
  },
  {
    "id": 29,
    "name": "Судебная реформа",
    "reformer": "Александр II",
    "year": 1864,
    "period": "XIX век",
    "type": "правовая",
    "region": "Российская империя",
    "coordinates": [
      59.9386,
      30.3141
    ],
    "goal": "Создать более независимую, публичную и состязательную судебную систему.",
    "measures": "Введены независимость суда, гласность процесса, состязательность сторон, адвокатура, суд присяжных и мировые судьи.",
    "results": "Суд стал одним из наиболее модернизированных институтов империи, хотя позднее часть принципов была ограничена.",
    "locations": [
      {
        "name": "Санкт-Петербург",
        "coordinates": [
          59.9386,
          30.3141
        ]
      },
      {
        "name": "Москва",
        "coordinates": [
          55.7558,
          37.6173
        ]
      },
      {
        "name": "Киев",
        "coordinates": [
          50.4501,
          30.5234
        ]
      },
      {
        "name": "Казань",
        "coordinates": [
          55.7963,
          49.1088
        ]
      },
      {
        "name": "Варшава",
        "coordinates": [
          52.2297,
          21.0122
        ]
      }
    ]
  },
  {
    "id": 30,
    "name": "Школьная реформа Александра II",
    "reformer": "Александр II",
    "year": 1864,
    "period": "XIX век",
    "type": "образовательная",
    "region": "Российская империя",
    "coordinates": [
      55.7558,
      37.6173
    ],
    "goal": "Расширить начальное образование после отмены крепостного права.",
    "measures": "Принято положение о начальных народных училищах; к участию в образовании допущены земства, городские общества и частные лица.",
    "results": "Сеть начальных школ выросла, но доступ к образованию оставался неравномерным.",
    "locations": [
      {
        "name": "Москва",
        "coordinates": [
          55.7558,
          37.6173
        ]
      },
      {
        "name": "Санкт-Петербург",
        "coordinates": [
          59.9386,
          30.3141
        ]
      },
      {
        "name": "Казань",
        "coordinates": [
          55.7963,
          49.1088
        ]
      },
      {
        "name": "Харьков",
        "coordinates": [
          49.9935,
          36.2304
        ]
      },
      {
        "name": "Вильнюс",
        "coordinates": [
          54.6872,
          25.2797
        ]
      }
    ]
  },
  {
    "id": 31,
    "name": "Университетский устав Александра II",
    "reformer": "Александр II",
    "year": 1863,
    "period": "XIX век",
    "type": "образовательная",
    "region": "Российская империя",
    "coordinates": [
      59.9386,
      30.3141
    ],
    "goal": "Расширить автономию университетов и обновить высшее образование.",
    "measures": "Университетам возвращены права самоуправления, выборности ректора и деканов, расширены полномочия советов.",
    "results": "Высшая школа получила импульс развития, усилилась научная и общественная роль университетов.",
    "locations": [
      {
        "name": "Москва",
        "coordinates": [
          55.7558,
          37.6173
        ]
      },
      {
        "name": "Санкт-Петербург",
        "coordinates": [
          59.9386,
          30.3141
        ]
      },
      {
        "name": "Казань",
        "coordinates": [
          55.7963,
          49.1088
        ]
      },
      {
        "name": "Харьков",
        "coordinates": [
          49.9935,
          36.2304
        ]
      },
      {
        "name": "Вильнюс",
        "coordinates": [
          54.6872,
          25.2797
        ]
      }
    ]
  },
  {
    "id": 32,
    "name": "Цензурная реформа",
    "reformer": "Александр II",
    "year": 1865,
    "period": "XIX век",
    "type": "культурная",
    "region": "Российская империя",
    "coordinates": [
      59.9386,
      30.3141
    ],
    "goal": "Ослабить предварительную цензуру и адаптировать печать к условиям реформ.",
    "measures": "Для части периодических изданий и книг предварительная цензура заменялась ответственностью после публикации; сохранялись административные наказания.",
    "results": "Печать стала активнее участвовать в общественной жизни, но государственный контроль над публичной сферой сохранился.",
    "locations": [
      {
        "name": "Санкт-Петербург",
        "coordinates": [
          59.9386,
          30.3141
        ]
      },
      {
        "name": "Москва",
        "coordinates": [
          55.7558,
          37.6173
        ]
      },
      {
        "name": "Киев",
        "coordinates": [
          50.4501,
          30.5234
        ]
      },
      {
        "name": "Варшава",
        "coordinates": [
          52.2297,
          21.0122
        ]
      },
      {
        "name": "Тифлис",
        "coordinates": [
          41.7151,
          44.8271
        ]
      }
    ]
  },
  {
    "id": 33,
    "name": "Городская реформа",
    "reformer": "Александр II",
    "year": 1870,
    "period": "XIX век",
    "type": "городская",
    "region": "Российская империя",
    "coordinates": [
      55.7558,
      37.6173
    ],
    "goal": "Создать более эффективное городское самоуправление.",
    "measures": "Учреждены городские думы и управы, избираемые на имущественной основе; им переданы вопросы хозяйства, благоустройства, образования и здравоохранения.",
    "results": "Города получили инструменты хозяйственного управления, но избирательная система давала преимущество состоятельным слоям.",
    "locations": [
      {
        "name": "Санкт-Петербург",
        "coordinates": [
          59.9386,
          30.3141
        ]
      },
      {
        "name": "Москва",
        "coordinates": [
          55.7558,
          37.6173
        ]
      },
      {
        "name": "Нижний Новгород",
        "coordinates": [
          56.3269,
          44.0059
        ]
      },
      {
        "name": "Киев",
        "coordinates": [
          50.4501,
          30.5234
        ]
      },
      {
        "name": "Одесса",
        "coordinates": [
          46.4825,
          30.7233
        ]
      }
    ]
  },
  {
    "id": 34,
    "name": "Военная реформа Милютина",
    "reformer": "Александр II / Д. А. Милютин",
    "year": "1860-е–1874",
    "period": "XIX век",
    "type": "военная",
    "region": "Российская империя",
    "coordinates": [
      59.9386,
      30.3141
    ],
    "goal": "Модернизировать армию после Крымской войны.",
    "measures": "Созданы военные округа, реформировано военное образование, сокращён срок службы, в 1874 году введена всеобщая воинская повинность.",
    "results": "Армия стала более массовой и современной, повысилась мобилизационная готовность государства.",
    "locations": [
      {
        "name": "Кронштадт",
        "coordinates": [
          59.9954,
          29.7663
        ]
      },
      {
        "name": "Севастополь",
        "coordinates": [
          44.6166,
          33.5254
        ]
      },
      {
        "name": "Варшава",
        "coordinates": [
          52.2297,
          21.0122
        ]
      },
      {
        "name": "Тифлис",
        "coordinates": [
          41.7151,
          44.8271
        ]
      },
      {
        "name": "Владивосток",
        "coordinates": [
          43.1155,
          131.8855
        ]
      },
      {
        "name": "Тула",
        "coordinates": [
          54.193,
          37.6178
        ]
      }
    ]
  },
  {
    "id": 35,
    "name": "Финансовые реформы Рейтерна",
    "reformer": "Александр II / М. Х. Рейтерн",
    "year": "1862–1878",
    "period": "XIX век",
    "type": "финансовая",
    "region": "Российская империя",
    "coordinates": [
      59.9386,
      30.3141
    ],
    "goal": "Упорядочить бюджет, государственный кредит и финансовое управление.",
    "measures": "Введена публичность бюджета, реформирована система казначейства, развивались банки и железнодорожное финансирование.",
    "results": "Финансовое управление стало прозрачнее и современнее, что поддержало промышленный и транспортный рост.",
    "locations": [
      {
        "name": "Санкт-Петербург",
        "coordinates": [
          59.9386,
          30.3141
        ]
      },
      {
        "name": "Москва",
        "coordinates": [
          55.7558,
          37.6173
        ]
      },
      {
        "name": "Нижний Новгород",
        "coordinates": [
          56.3269,
          44.0059
        ]
      },
      {
        "name": "Одесса",
        "coordinates": [
          46.4825,
          30.7233
        ]
      },
      {
        "name": "Рига",
        "coordinates": [
          56.9496,
          24.1052
        ]
      }
    ]
  },
  {
    "id": 36,
    "name": "Положение об усиленной и чрезвычайной охране",
    "reformer": "Александр III",
    "year": 1881,
    "period": "XIX век",
    "type": "политическая",
    "region": "Российская империя",
    "coordinates": [
      59.9386,
      30.3141
    ],
    "goal": "Усилить охрану самодержавного порядка после убийства Александра II.",
    "measures": "Местные власти получили право вводить режимы усиленной и чрезвычайной охраны, ограничивать права, высылать подозреваемых и закрывать издания.",
    "results": "Полицейский контроль усилился, революционное движение временно ослабло, но политическая напряжённость не исчезла.",
    "locations": [
      {
        "name": "Санкт-Петербург",
        "coordinates": [
          59.9386,
          30.3141
        ]
      },
      {
        "name": "Москва",
        "coordinates": [
          55.7558,
          37.6173
        ]
      },
      {
        "name": "Варшава",
        "coordinates": [
          52.2297,
          21.0122
        ]
      },
      {
        "name": "Киев",
        "coordinates": [
          50.4501,
          30.5234
        ]
      },
      {
        "name": "Тифлис",
        "coordinates": [
          41.7151,
          44.8271
        ]
      }
    ]
  },
  {
    "id": 37,
    "name": "Университетский устав Александра III",
    "reformer": "Александр III",
    "year": 1884,
    "period": "XIX век",
    "type": "образовательная",
    "region": "Российская империя",
    "coordinates": [
      59.9386,
      30.3141
    ],
    "goal": "Ограничить автономию университетов и усилить государственный надзор.",
    "measures": "Ликвидирована выборность руководства университетов, расширены полномочия попечителей и министерства, усилена дисциплинарная регламентация.",
    "results": "Университетская автономия была резко сокращена, усилилось недовольство студенческой среды.",
    "locations": [
      {
        "name": "Москва",
        "coordinates": [
          55.7558,
          37.6173
        ]
      },
      {
        "name": "Санкт-Петербург",
        "coordinates": [
          59.9386,
          30.3141
        ]
      },
      {
        "name": "Казань",
        "coordinates": [
          55.7963,
          49.1088
        ]
      },
      {
        "name": "Харьков",
        "coordinates": [
          49.9935,
          36.2304
        ]
      },
      {
        "name": "Вильнюс",
        "coordinates": [
          54.6872,
          25.2797
        ]
      }
    ]
  },
  {
    "id": 38,
    "name": "Институт земских начальников",
    "reformer": "Александр III",
    "year": 1889,
    "period": "XIX век",
    "type": "административная",
    "region": "Российская империя",
    "coordinates": [
      55.7558,
      37.6173
    ],
    "goal": "Усилить контроль дворянства и администрации над крестьянским самоуправлением.",
    "measures": "Введены земские начальники из местных дворян с административными и судебными полномочиями над крестьянами.",
    "results": "Крестьянское самоуправление было ограничено, социальная зависимость деревни от администрации усилилась.",
    "locations": [
      {
        "name": "Тамбов",
        "coordinates": [
          52.7212,
          41.4523
        ]
      },
      {
        "name": "Воронеж",
        "coordinates": [
          51.6608,
          39.2003
        ]
      },
      {
        "name": "Казань",
        "coordinates": [
          55.7963,
          49.1088
        ]
      },
      {
        "name": "Самара",
        "coordinates": [
          53.1959,
          50.1008
        ]
      },
      {
        "name": "Пермь",
        "coordinates": [
          58.0105,
          56.2502
        ]
      }
    ]
  },
  {
    "id": 39,
    "name": "Земская контрреформа",
    "reformer": "Александр III",
    "year": 1890,
    "period": "XIX век",
    "type": "административная",
    "region": "Российская империя",
    "coordinates": [
      55.7558,
      37.6173
    ],
    "goal": "Усилить государственный и дворянский контроль над земствами.",
    "measures": "Изменены избирательные правила в пользу дворянства; расширен административный надзор губернаторов.",
    "results": "Представительность земств снизилась, а их самостоятельность была ограничена.",
    "locations": [
      {
        "name": "Тула",
        "coordinates": [
          54.193,
          37.6178
        ]
      },
      {
        "name": "Ярославль",
        "coordinates": [
          57.6261,
          39.8845
        ]
      },
      {
        "name": "Казань",
        "coordinates": [
          55.7963,
          49.1088
        ]
      },
      {
        "name": "Самара",
        "coordinates": [
          53.1959,
          50.1008
        ]
      },
      {
        "name": "Харьков",
        "coordinates": [
          49.9935,
          36.2304
        ]
      }
    ]
  },
  {
    "id": 40,
    "name": "Городская контрреформа",
    "reformer": "Александр III",
    "year": 1892,
    "period": "XIX век",
    "type": "городская",
    "region": "Российская империя",
    "coordinates": [
      55.7558,
      37.6173
    ],
    "goal": "Сократить участие низших городских слоёв в самоуправлении.",
    "measures": "Повышен имущественный ценз для участия в выборах, усилен контроль администрации над городскими думами.",
    "results": "Городское самоуправление стало менее представительным и более зависимым от властей.",
    "locations": [
      {
        "name": "Санкт-Петербург",
        "coordinates": [
          59.9386,
          30.3141
        ]
      },
      {
        "name": "Москва",
        "coordinates": [
          55.7558,
          37.6173
        ]
      },
      {
        "name": "Нижний Новгород",
        "coordinates": [
          56.3269,
          44.0059
        ]
      },
      {
        "name": "Киев",
        "coordinates": [
          50.4501,
          30.5234
        ]
      },
      {
        "name": "Одесса",
        "coordinates": [
          46.4825,
          30.7233
        ]
      }
    ]
  },
  {
    "id": 41,
    "name": "Отмена подушной подати",
    "reformer": "Александр III / Н. Х. Бунге",
    "year": "1883–1887",
    "period": "XIX век",
    "type": "налоговая",
    "region": "Российская империя",
    "coordinates": [
      59.9386,
      30.3141
    ],
    "goal": "Снизить налоговое бремя крестьян и модернизировать налоговую систему.",
    "measures": "Подушная подать постепенно отменялась и заменялась другими налоговыми поступлениями.",
    "results": "Один из символов сословного налогообложения был ликвидирован, хотя общая фискальная нагрузка сохранялась через косвенные налоги.",
    "locations": [
      {
        "name": "Тула",
        "coordinates": [
          54.193,
          37.6178
        ]
      },
      {
        "name": "Тамбов",
        "coordinates": [
          52.7212,
          41.4523
        ]
      },
      {
        "name": "Рязань",
        "coordinates": [
          54.6292,
          39.7364
        ]
      },
      {
        "name": "Саратов",
        "coordinates": [
          51.5331,
          46.0342
        ]
      },
      {
        "name": "Казань",
        "coordinates": [
          55.7963,
          49.1088
        ]
      }
    ]
  },
  {
    "id": 42,
    "name": "Денежная реформа Витте",
    "reformer": "Николай II / С. Ю. Витте",
    "year": "1895–1897",
    "period": "XIX век",
    "type": "финансовая",
    "region": "Российская империя",
    "coordinates": [
      59.9386,
      30.3141
    ],
    "goal": "Стабилизировать рубль и интегрировать Россию в международную финансовую систему.",
    "measures": "Введён золотой стандарт; кредитные билеты получили свободный обмен на золото по установленному курсу.",
    "results": "Рубль стал устойчивее, выросла привлекательность России для иностранных инвестиций, но денежная политика стала жёстче.",
    "locations": [
      {
        "name": "Санкт-Петербург",
        "coordinates": [
          59.9386,
          30.3141
        ]
      },
      {
        "name": "Москва",
        "coordinates": [
          55.7558,
          37.6173
        ]
      },
      {
        "name": "Нижний Новгород",
        "coordinates": [
          56.3269,
          44.0059
        ]
      },
      {
        "name": "Одесса",
        "coordinates": [
          46.4825,
          30.7233
        ]
      },
      {
        "name": "Рига",
        "coordinates": [
          56.9496,
          24.1052
        ]
      }
    ]
  },
  {
    "id": 43,
    "name": "Манифест 17 октября и учреждение Государственной думы",
    "reformer": "Николай II / С. Ю. Витте",
    "year": "1905–1906",
    "period": "XX век",
    "type": "политическая",
    "region": "Российская империя",
    "coordinates": [
      59.9386,
      30.3141
    ],
    "goal": "Стабилизировать страну в условиях революции 1905 года и создать представительный институт.",
    "measures": "Провозглашены гражданские свободы, учреждена Государственная дума, изменён порядок законотворчества.",
    "results": "Россия получила элементы конституционной монархии, но самодержавие сохранило значительные рычаги контроля.",
    "locations": [
      {
        "name": "Санкт-Петербург",
        "coordinates": [
          59.9386,
          30.3141
        ]
      },
      {
        "name": "Москва",
        "coordinates": [
          55.7558,
          37.6173
        ]
      },
      {
        "name": "Киев",
        "coordinates": [
          50.4501,
          30.5234
        ]
      },
      {
        "name": "Варшава",
        "coordinates": [
          52.2297,
          21.0122
        ]
      },
      {
        "name": "Тифлис",
        "coordinates": [
          41.7151,
          44.8271
        ]
      }
    ]
  },
  {
    "id": 44,
    "name": "Столыпинская аграрная реформа",
    "reformer": "Николай II / П. А. Столыпин",
    "year": "1906–1917",
    "period": "XX век",
    "type": "аграрная",
    "region": "Российская империя",
    "coordinates": [
      55.7558,
      37.6173
    ],
    "goal": "Сформировать слой крестьян-собственников, снизить аграрную напряжённость и модернизировать сельское хозяйство.",
    "measures": "Крестьянам разрешён выход из общины с закреплением земли в личную собственность; поддерживались хутора и отруба, Крестьянский банк и переселение в Сибирь.",
    "results": "Часть крестьянских хозяйств укрепилась, выросла миграция в Сибирь, но реформа не была завершена до революции.",
    "locations": [
      {
        "name": "Саратов",
        "coordinates": [
          51.5331,
          46.0342
        ]
      },
      {
        "name": "Самара",
        "coordinates": [
          53.1959,
          50.1008
        ]
      },
      {
        "name": "Омск",
        "coordinates": [
          54.9885,
          73.3242
        ]
      },
      {
        "name": "Новосибирск",
        "coordinates": [
          55.0084,
          82.9357
        ]
      },
      {
        "name": "Воронеж",
        "coordinates": [
          51.6608,
          39.2003
        ]
      },
      {
        "name": "Уфа",
        "coordinates": [
          54.7388,
          55.9721
        ]
      }
    ]
  },
  {
    "id": 45,
    "name": "Военная реформа после русско-японской войны",
    "reformer": "Николай II / военное министерство",
    "year": "1905–1912",
    "period": "XX век",
    "type": "военная",
    "region": "Российская империя",
    "coordinates": [
      59.9386,
      30.3141
    ],
    "goal": "Обновить армию после поражения в русско-японской войне.",
    "measures": "Реорганизовано управление войсками, улучшалась подготовка офицеров, обновлялись вооружение, мобилизационное планирование и структура частей.",
    "results": "Боеспособность армии частично повысилась, но к Первой мировой войне сохранялись проблемы снабжения и управления.",
    "locations": [
      {
        "name": "Кронштадт",
        "coordinates": [
          59.9954,
          29.7663
        ]
      },
      {
        "name": "Севастополь",
        "coordinates": [
          44.6166,
          33.5254
        ]
      },
      {
        "name": "Варшава",
        "coordinates": [
          52.2297,
          21.0122
        ]
      },
      {
        "name": "Тифлис",
        "coordinates": [
          41.7151,
          44.8271
        ]
      },
      {
        "name": "Владивосток",
        "coordinates": [
          43.1155,
          131.8855
        ]
      },
      {
        "name": "Тула",
        "coordinates": [
          54.193,
          37.6178
        ]
      }
    ]
  },
  {
    "id": 46,
    "name": "Декрет о земле",
    "reformer": "Совет народных комиссаров / В. И. Ленин",
    "year": 1917,
    "period": "XX век",
    "type": "аграрная",
    "region": "Россия",
    "coordinates": [
      59.9386,
      30.3141
    ],
    "goal": "Ликвидировать помещичье землевладение и закрепить поддержку крестьян революционной властью.",
    "measures": "Помещичья собственность на землю отменена; земля передавалась в общенародное достояние и распределялась по трудовому принципу.",
    "results": "Старая аграрная система была разрушена, но последующая политика привела к конфликтам вокруг собственности и продовольствия.",
    "locations": [
      {
        "name": "Тамбов",
        "coordinates": [
          52.7212,
          41.4523
        ]
      },
      {
        "name": "Курск",
        "coordinates": [
          51.7304,
          36.1926
        ]
      },
      {
        "name": "Саратов",
        "coordinates": [
          51.5331,
          46.0342
        ]
      },
      {
        "name": "Самара",
        "coordinates": [
          53.1959,
          50.1008
        ]
      },
      {
        "name": "Воронеж",
        "coordinates": [
          51.6608,
          39.2003
        ]
      }
    ]
  },
  {
    "id": 47,
    "name": "Национализация банков и крупной промышленности",
    "reformer": "Совет народных комиссаров / В. И. Ленин",
    "year": "1917–1918",
    "period": "XX век",
    "type": "экономическая",
    "region": "Советская Россия",
    "coordinates": [
      55.7558,
      37.6173
    ],
    "goal": "Установить контроль советской власти над финансовой системой и ключевыми отраслями экономики.",
    "measures": "Национализированы банки, крупные предприятия, транспорт и внешняя торговля; расширен рабочий контроль.",
    "results": "Частный капитал был вытеснен из ключевых секторов, экономика перешла к централизованному управлению.",
    "locations": [
      {
        "name": "Москва",
        "coordinates": [
          55.7558,
          37.6173
        ]
      },
      {
        "name": "Санкт-Петербург",
        "coordinates": [
          59.9386,
          30.3141
        ]
      },
      {
        "name": "Донбасс",
        "coordinates": [
          48.0159,
          37.8029
        ]
      },
      {
        "name": "Баку",
        "coordinates": [
          40.4093,
          49.8671
        ]
      },
      {
        "name": "Екатеринбург",
        "coordinates": [
          56.8389,
          60.6057
        ]
      }
    ]
  },
  {
    "id": 48,
    "name": "Новая экономическая политика",
    "reformer": "РКП(б) / В. И. Ленин",
    "year": "1921–1928",
    "period": "XX век",
    "type": "экономическая",
    "region": "РСФСР / СССР",
    "coordinates": [
      55.7558,
      37.6173
    ],
    "goal": "Восстановить хозяйство после Гражданской войны и кризиса политики военного коммунизма.",
    "measures": "Продразвёрстка заменена продналогом; разрешены частная торговля, аренда, мелкое предпринимательство и элементы рынка при сохранении контроля государства над ключевыми отраслями.",
    "results": "Экономика быстро восстановилась, но возникли противоречия между рыночными механизмами и партийным контролем.",
    "locations": [
      {
        "name": "Москва",
        "coordinates": [
          55.7558,
          37.6173
        ]
      },
      {
        "name": "Нижний Новгород",
        "coordinates": [
          56.3269,
          44.0059
        ]
      },
      {
        "name": "Харьков",
        "coordinates": [
          49.9935,
          36.2304
        ]
      },
      {
        "name": "Ташкент",
        "coordinates": [
          41.2995,
          69.2401
        ]
      },
      {
        "name": "Новосибирск",
        "coordinates": [
          55.0084,
          82.9357
        ]
      }
    ]
  },
  {
    "id": 49,
    "name": "Образование СССР и национально-государственная реформа",
    "reformer": "РКП(б) / руководство советских республик",
    "year": 1922,
    "period": "XX век",
    "type": "административная",
    "region": "СССР",
    "coordinates": [
      55.7558,
      37.6173
    ],
    "goal": "Оформить союз советских республик в единую федеративную государственную систему.",
    "measures": "Подписан договор об образовании СССР; созданы союзные органы власти и разграничены компетенции центра и республик.",
    "results": "Возникло новое союзное государство с формальной федеративной структурой и сильным партийно-государственным центром.",
    "locations": [
      {
        "name": "Москва",
        "coordinates": [
          55.7558,
          37.6173
        ]
      },
      {
        "name": "Минск",
        "coordinates": [
          53.9006,
          27.559
        ]
      },
      {
        "name": "Киев",
        "coordinates": [
          50.4501,
          30.5234
        ]
      },
      {
        "name": "Тифлис",
        "coordinates": [
          41.7151,
          44.8271
        ]
      },
      {
        "name": "Ташкент",
        "coordinates": [
          41.2995,
          69.2401
        ]
      }
    ]
  },
  {
    "id": 50,
    "name": "Индустриализация",
    "reformer": "И. В. Сталин / ВКП(б)",
    "year": "1928–1941",
    "period": "XX век",
    "type": "экономическая",
    "region": "СССР",
    "coordinates": [
      55.7558,
      37.6173
    ],
    "goal": "Создать мощную тяжёлую промышленность и обеспечить экономическую самостоятельность СССР.",
    "measures": "Введены пятилетние планы, приоритет тяжёлой промышленности, централизованное распределение ресурсов, массовое строительство заводов и инфраструктуры.",
    "results": "Промышленный потенциал резко вырос, но цена включала дефицит, принудительную мобилизацию труда и падение уровня жизни.",
    "locations": [
      {
        "name": "Магнитогорск",
        "coordinates": [
          53.4072,
          58.9791
        ]
      },
      {
        "name": "Новокузнецк",
        "coordinates": [
          53.7576,
          87.1361
        ]
      },
      {
        "name": "Екатеринбург",
        "coordinates": [
          56.8389,
          60.6057
        ]
      },
      {
        "name": "Челябинск",
        "coordinates": [
          55.1644,
          61.4368
        ]
      },
      {
        "name": "Баку",
        "coordinates": [
          40.4093,
          49.8671
        ]
      },
      {
        "name": "Днепр",
        "coordinates": [
          48.4647,
          35.0462
        ]
      }
    ]
  },
  {
    "id": 51,
    "name": "Коллективизация сельского хозяйства",
    "reformer": "И. В. Сталин / ВКП(б)",
    "year": "1929–1937",
    "period": "XX век",
    "type": "аграрная",
    "region": "СССР",
    "coordinates": [
      55.7558,
      37.6173
    ],
    "goal": "Подчинить сельское хозяйство централизованному планированию и обеспечить ресурсы для индустриализации.",
    "measures": "Крестьянские хозяйства объединялись в колхозы и совхозы; проводились раскулачивание, хлебозаготовки и административное давление.",
    "results": "Государство усилило контроль над деревней, но реформа сопровождалась насилием, голодом, падением стимулов и демографическими потерями.",
    "locations": [
      {
        "name": "Тамбов",
        "coordinates": [
          52.7212,
          41.4523
        ]
      },
      {
        "name": "Курск",
        "coordinates": [
          51.7304,
          36.1926
        ]
      },
      {
        "name": "Ростов-на-Дону",
        "coordinates": [
          47.2357,
          39.7015
        ]
      },
      {
        "name": "Новосибирск",
        "coordinates": [
          55.0084,
          82.9357
        ]
      },
      {
        "name": "Алма-Ата",
        "coordinates": [
          43.2389,
          76.8897
        ]
      }
    ]
  },
  {
    "id": 52,
    "name": "Паспортная реформа СССР",
    "reformer": "И. В. Сталин / СНК СССР",
    "year": "1932–1933",
    "period": "XX век",
    "type": "административная",
    "region": "СССР",
    "coordinates": [
      55.7558,
      37.6173
    ],
    "goal": "Усилить контроль над перемещением населения и городским рынком труда.",
    "measures": "Введена единая паспортная система для городского населения и режим прописки; значительная часть сельского населения паспортов не получила.",
    "results": "Государственный контроль над миграцией усилился, а зависимость колхозников от места проживания возросла.",
    "locations": [
      {
        "name": "Москва",
        "coordinates": [
          55.7558,
          37.6173
        ]
      },
      {
        "name": "Санкт-Петербург",
        "coordinates": [
          59.9386,
          30.3141
        ]
      },
      {
        "name": "Харьков",
        "coordinates": [
          49.9935,
          36.2304
        ]
      },
      {
        "name": "Ташкент",
        "coordinates": [
          41.2995,
          69.2401
        ]
      },
      {
        "name": "Новосибирск",
        "coordinates": [
          55.0084,
          82.9357
        ]
      }
    ]
  },
  {
    "id": 53,
    "name": "Конституционная реформа 1936 года",
    "reformer": "И. В. Сталин / ЦИК СССР",
    "year": 1936,
    "period": "XX век",
    "type": "политическая",
    "region": "СССР",
    "coordinates": [
      55.7558,
      37.6173
    ],
    "goal": "Юридически оформить новую социально-политическую структуру СССР.",
    "measures": "Принята Конституция СССР 1936 года; провозглашены всеобщее избирательное право, социальные права и новая система Советов.",
    "results": "Формально расширены права граждан, но реальная политическая власть оставалась монополией партии и репрессивного аппарата.",
    "locations": [
      {
        "name": "Москва",
        "coordinates": [
          55.7558,
          37.6173
        ]
      },
      {
        "name": "Минск",
        "coordinates": [
          53.9006,
          27.559
        ]
      },
      {
        "name": "Киев",
        "coordinates": [
          50.4501,
          30.5234
        ]
      },
      {
        "name": "Тифлис",
        "coordinates": [
          41.7151,
          44.8271
        ]
      },
      {
        "name": "Алма-Ата",
        "coordinates": [
          43.2389,
          76.8897
        ]
      }
    ]
  },
  {
    "id": 54,
    "name": "Послевоенная денежная реформа",
    "reformer": "И. В. Сталин / Совет министров СССР",
    "year": 1947,
    "period": "XX век",
    "type": "финансовая",
    "region": "СССР",
    "coordinates": [
      55.7558,
      37.6173
    ],
    "goal": "Стабилизировать денежное обращение после войны и отменить карточную систему.",
    "measures": "Проведён обмен денег, отменены продовольственные и промтоварные карточки, пересмотрены цены и вклады.",
    "results": "Денежная система была стабилизирована, но часть населения потеряла накопления из-за условий обмена.",
    "locations": [
      {
        "name": "Москва",
        "coordinates": [
          55.7558,
          37.6173
        ]
      },
      {
        "name": "Санкт-Петербург",
        "coordinates": [
          59.9386,
          30.3141
        ]
      },
      {
        "name": "Киев",
        "coordinates": [
          50.4501,
          30.5234
        ]
      },
      {
        "name": "Минск",
        "coordinates": [
          53.9006,
          27.559
        ]
      },
      {
        "name": "Екатеринбург",
        "coordinates": [
          56.8389,
          60.6057
        ]
      }
    ]
  },
  {
    "id": 55,
    "name": "Ликвидация отраслевых министерств и создание совнархозов",
    "reformer": "Н. С. Хрущёв",
    "year": 1957,
    "period": "XX век",
    "type": "административная",
    "region": "СССР",
    "coordinates": [
      55.7558,
      37.6173
    ],
    "goal": "Децентрализовать управление промышленностью и приблизить руководство к регионам.",
    "measures": "Многие отраслевые министерства заменены территориальными советами народного хозяйства — совнархозами.",
    "results": "Региональная координация усилилась, но возникли разрывы отраслевых связей и управленческая фрагментация.",
    "locations": [
      {
        "name": "Екатеринбург",
        "coordinates": [
          56.8389,
          60.6057
        ]
      },
      {
        "name": "Новосибирск",
        "coordinates": [
          55.0084,
          82.9357
        ]
      },
      {
        "name": "Харьков",
        "coordinates": [
          49.9935,
          36.2304
        ]
      },
      {
        "name": "Ташкент",
        "coordinates": [
          41.2995,
          69.2401
        ]
      },
      {
        "name": "Рига",
        "coordinates": [
          56.9496,
          24.1052
        ]
      }
    ]
  },
  {
    "id": 56,
    "name": "Пенсионная реформа для колхозников",
    "reformer": "Н. С. Хрущёв / Л. И. Брежнев",
    "year": "1964–1965",
    "period": "XX век",
    "type": "социальная",
    "region": "СССР",
    "coordinates": [
      55.7558,
      37.6173
    ],
    "goal": "Расширить социальные гарантии сельского населения.",
    "measures": "Введены пенсии для колхозников и постепенно расширены социальные выплаты сельским жителям.",
    "results": "Социальная защита деревни улучшилась, хотя размеры выплат оставались ниже городских стандартов.",
    "locations": [
      {
        "name": "Тамбов",
        "coordinates": [
          52.7212,
          41.4523
        ]
      },
      {
        "name": "Курск",
        "coordinates": [
          51.7304,
          36.1926
        ]
      },
      {
        "name": "Самара",
        "coordinates": [
          53.1959,
          50.1008
        ]
      },
      {
        "name": "Новосибирск",
        "coordinates": [
          55.0084,
          82.9357
        ]
      },
      {
        "name": "Алма-Ата",
        "coordinates": [
          43.2389,
          76.8897
        ]
      }
    ]
  },
  {
    "id": 57,
    "name": "Косыгинская экономическая реформа",
    "reformer": "А. Н. Косыгин / Л. И. Брежнев",
    "year": "1965–1970-е",
    "period": "XX век",
    "type": "экономическая",
    "region": "СССР",
    "coordinates": [
      55.7558,
      37.6173
    ],
    "goal": "Повысить эффективность плановой экономики через хозяйственный расчёт и материальное стимулирование.",
    "measures": "Предприятия переводились на показатели прибыли, рентабельности и реализации; расширялась самостоятельность в использовании фондов стимулирования.",
    "results": "В краткосрочной перспективе показатели улучшились, но реформа была ограничена партийно-административной системой и постепенно свёрнута.",
    "locations": [
      {
        "name": "Москва",
        "coordinates": [
          55.7558,
          37.6173
        ]
      },
      {
        "name": "Санкт-Петербург",
        "coordinates": [
          59.9386,
          30.3141
        ]
      },
      {
        "name": "Нижний Новгород",
        "coordinates": [
          56.3269,
          44.0059
        ]
      },
      {
        "name": "Екатеринбург",
        "coordinates": [
          56.8389,
          60.6057
        ]
      },
      {
        "name": "Новосибирск",
        "coordinates": [
          55.0084,
          82.9357
        ]
      }
    ]
  },
  {
    "id": 58,
    "name": "Конституционная реформа 1977 года",
    "reformer": "Л. И. Брежнев / Верховный Совет СССР",
    "year": 1977,
    "period": "XX век",
    "type": "политическая",
    "region": "СССР",
    "coordinates": [
      55.7558,
      37.6173
    ],
    "goal": "Закрепить модель развитого социализма и роль КПСС в государстве.",
    "measures": "Принята новая Конституция СССР; статья 6 закрепила руководящую роль КПСС; провозглашены социальные права граждан.",
    "results": "Политическая монополия партии получила конституционное оформление, а реальная демократизация не произошла.",
    "locations": [
      {
        "name": "Москва",
        "coordinates": [
          55.7558,
          37.6173
        ]
      },
      {
        "name": "Минск",
        "coordinates": [
          53.9006,
          27.559
        ]
      },
      {
        "name": "Киев",
        "coordinates": [
          50.4501,
          30.5234
        ]
      },
      {
        "name": "Тифлис",
        "coordinates": [
          41.7151,
          44.8271
        ]
      },
      {
        "name": "Алма-Ата",
        "coordinates": [
          43.2389,
          76.8897
        ]
      }
    ]
  },
  {
    "id": 59,
    "name": "Антиалкогольная кампания",
    "reformer": "М. С. Горбачёв",
    "year": "1985–1988",
    "period": "XX век",
    "type": "социальная",
    "region": "СССР",
    "coordinates": [
      55.7558,
      37.6173
    ],
    "goal": "Снизить пьянство, повысить трудовую дисциплину и улучшить демографические показатели.",
    "measures": "Сокращены производство и продажа алкоголя, повышены цены, ограничены часы торговли, вырубались виноградники.",
    "results": "Потребление алкоголя временно снизилось, но бюджет потерял доходы, выросли самогоноварение и теневой рынок.",
    "locations": [
      {
        "name": "Москва",
        "coordinates": [
          55.7558,
          37.6173
        ]
      },
      {
        "name": "Киев",
        "coordinates": [
          50.4501,
          30.5234
        ]
      },
      {
        "name": "Минск",
        "coordinates": [
          53.9006,
          27.559
        ]
      },
      {
        "name": "Тифлис",
        "coordinates": [
          41.7151,
          44.8271
        ]
      },
      {
        "name": "Краснодар",
        "coordinates": [
          45.0355,
          38.9753
        ]
      }
    ]
  },
  {
    "id": 60,
    "name": "Перестройка",
    "reformer": "М. С. Горбачёв",
    "year": "1985–1991",
    "period": "XX век",
    "type": "политическая",
    "region": "СССР",
    "coordinates": [
      55.7558,
      37.6173
    ],
    "goal": "Преодолеть системный кризис советской экономики и политической модели.",
    "measures": "Проводились гласность, демократизация, реформа выборов, расширение самостоятельности предприятий и попытки обновления федеративных отношений.",
    "results": "Политическая система стала более открытой, но экономический кризис и национальные конфликты усилились; СССР распался в 1991 году.",
    "locations": [
      {
        "name": "Москва",
        "coordinates": [
          55.7558,
          37.6173
        ]
      },
      {
        "name": "Санкт-Петербург",
        "coordinates": [
          59.9386,
          30.3141
        ]
      },
      {
        "name": "Киев",
        "coordinates": [
          50.4501,
          30.5234
        ]
      },
      {
        "name": "Минск",
        "coordinates": [
          53.9006,
          27.559
        ]
      },
      {
        "name": "Ташкент",
        "coordinates": [
          41.2995,
          69.2401
        ]
      }
    ]
  },
  {
    "id": 61,
    "name": "Закон о государственном предприятии",
    "reformer": "М. С. Горбачёв / Н. И. Рыжков",
    "year": 1987,
    "period": "XX век",
    "type": "экономическая",
    "region": "СССР",
    "coordinates": [
      55.7558,
      37.6173
    ],
    "goal": "Расширить хозяйственную самостоятельность предприятий в рамках социалистической экономики.",
    "measures": "Предприятия получили больше прав в планировании, самофинансировании, использовании прибыли и заключении договоров.",
    "results": "Самостоятельность выросла, но при сохранении плановых ограничений и дефицитов реформа усилила дисбалансы.",
    "locations": [
      {
        "name": "Москва",
        "coordinates": [
          55.7558,
          37.6173
        ]
      },
      {
        "name": "Санкт-Петербург",
        "coordinates": [
          59.9386,
          30.3141
        ]
      },
      {
        "name": "Екатеринбург",
        "coordinates": [
          56.8389,
          60.6057
        ]
      },
      {
        "name": "Новосибирск",
        "coordinates": [
          55.0084,
          82.9357
        ]
      },
      {
        "name": "Ташкент",
        "coordinates": [
          41.2995,
          69.2401
        ]
      }
    ]
  },
  {
    "id": 62,
    "name": "Закон о кооперации",
    "reformer": "М. С. Горбачёв",
    "year": 1988,
    "period": "XX век",
    "type": "экономическая",
    "region": "СССР",
    "coordinates": [
      55.7558,
      37.6173
    ],
    "goal": "Разрешить легальные формы частной инициативы в советской экономике.",
    "measures": "Кооперативам разрешены производство, услуги, торговля и найм работников при сохранении налогового и административного контроля.",
    "results": "Возник сектор легального предпринимательства, но появились ценовые перекосы, социальное раздражение и коррупционные схемы.",
    "locations": [
      {
        "name": "Москва",
        "coordinates": [
          55.7558,
          37.6173
        ]
      },
      {
        "name": "Санкт-Петербург",
        "coordinates": [
          59.9386,
          30.3141
        ]
      },
      {
        "name": "Екатеринбург",
        "coordinates": [
          56.8389,
          60.6057
        ]
      },
      {
        "name": "Новосибирск",
        "coordinates": [
          55.0084,
          82.9357
        ]
      },
      {
        "name": "Ташкент",
        "coordinates": [
          41.2995,
          69.2401
        ]
      }
    ]
  },
  {
    "id": 63,
    "name": "Реформа политической системы и выборы народных депутатов",
    "reformer": "М. С. Горбачёв",
    "year": "1988–1989",
    "period": "XX век",
    "type": "политическая",
    "region": "СССР",
    "coordinates": [
      55.7558,
      37.6173
    ],
    "goal": "Обновить советскую политическую систему и расширить представительство.",
    "measures": "Создан Съезд народных депутатов СССР, введены альтернативные выборы, расширена публичность парламентских дебатов.",
    "results": "Политическая конкуренция и общественная мобилизация резко выросли, контроль КПСС над обществом начал ослабевать.",
    "locations": [
      {
        "name": "Москва",
        "coordinates": [
          55.7558,
          37.6173
        ]
      },
      {
        "name": "Санкт-Петербург",
        "coordinates": [
          59.9386,
          30.3141
        ]
      },
      {
        "name": "Киев",
        "coordinates": [
          50.4501,
          30.5234
        ]
      },
      {
        "name": "Минск",
        "coordinates": [
          53.9006,
          27.559
        ]
      },
      {
        "name": "Вильнюс",
        "coordinates": [
          54.6872,
          25.2797
        ]
      }
    ]
  },
  {
    "id": 64,
    "name": "Отмена статьи 6 Конституции СССР",
    "reformer": "М. С. Горбачёв / Съезд народных депутатов СССР",
    "year": 1990,
    "period": "XX век",
    "type": "политическая",
    "region": "СССР",
    "coordinates": [
      55.7558,
      37.6173
    ],
    "goal": "Ликвидировать конституционную монополию КПСС на власть.",
    "measures": "Из Конституции СССР исключено положение о руководящей и направляющей роли КПСС; создан пост президента СССР.",
    "results": "Возникла правовая основа многопартийности, но политический кризис союзного государства ускорился.",
    "locations": [
      {
        "name": "Москва",
        "coordinates": [
          55.7558,
          37.6173
        ]
      },
      {
        "name": "Санкт-Петербург",
        "coordinates": [
          59.9386,
          30.3141
        ]
      },
      {
        "name": "Киев",
        "coordinates": [
          50.4501,
          30.5234
        ]
      },
      {
        "name": "Минск",
        "coordinates": [
          53.9006,
          27.559
        ]
      },
      {
        "name": "Вильнюс",
        "coordinates": [
          54.6872,
          25.2797
        ]
      }
    ]
  },
  {
    "id": 65,
    "name": "Рыночные реформы начала 1990-х",
    "reformer": "Б. Н. Ельцин / Е. Т. Гайдар",
    "year": "1991–1992",
    "period": "XX век",
    "type": "экономическая",
    "region": "Россия",
    "coordinates": [
      55.7558,
      37.6173
    ],
    "goal": "Перевести экономику от командно-административной модели к рыночной системе.",
    "measures": "Либерализованы цены, началась приватизация, сокращались государственные субсидии, перестраивались бюджетная и денежная политика.",
    "results": "Возникли рыночные институты, но реформы сопровождались инфляцией, падением производства, ростом неравенства и социальной напряжённостью.",
    "locations": [
      {
        "name": "Москва",
        "coordinates": [
          55.7558,
          37.6173
        ]
      },
      {
        "name": "Санкт-Петербург",
        "coordinates": [
          59.9386,
          30.3141
        ]
      },
      {
        "name": "Екатеринбург",
        "coordinates": [
          56.8389,
          60.6057
        ]
      },
      {
        "name": "Новосибирск",
        "coordinates": [
          55.0084,
          82.9357
        ]
      },
      {
        "name": "Владивосток",
        "coordinates": [
          43.1155,
          131.8855
        ]
      }
    ]
  }
]
